,Code,Rank,University,URL,Address,Lat,Lon
0,DE,8,LMU Munich,https://www.timeshighereducation.com/world-university-rankings/lmu-munich,"Geschwister-Scholl-Platz 1, Munich, 80539, Germany",48.1505,11.5803
1,SE,10,Karolinska Institute,https://www.timeshighereducation.com/world-university-rankings/karolinska-institute,"SE-171 77, Stockholm, Sweden",59.29349,18.08222
2,DE,11,Technical University of Munich,https://www.timeshighereducation.com/world-university-rankings/technical-university-munich,"Arcisstraße 21, Munich, D-80333, Germany",48.14885,11.568
3,DE,12,Heidelberg University,https://www.timeshighereducation.com/world-university-rankings/heidelberg-university,"310 E. Market Street, Tiffin, Ohio, 44883, United States",41.11633,-83.16853
4,BE,14,KU Leuven,https://www.timeshighereducation.com/world-university-rankings/ku-leuven,"Oude Markt 13, Leuven, 3000, Belgium",50.87794,4.70032
5,FR,15,Paris Sciences et Lettres – PSL Research University Paris,https://www.timeshighereducation.com/world-university-rankings/paris-sciences-et-lettres-psl-research-university-paris,"60 rue Mazarine, Paris, 75006, France",48.85468,2.3376
6,NL,17,Wageningen University & Research,https://www.timeshighereducation.com/world-university-rankings/wageningen-university-research,"Droevendaalsesteeg 4, Building nr. 104, Wageningen, 6702 PB, Netherlands",51.98633,5.66794
7,NL,18,University of Amsterdam,https://www.timeshighereducation.com/world-university-rankings/university-amsterdam,"P.O. Box 19268, 1000 GG Amsterdam, Netherlands",52.36994,4.90788
8,NL,19,Leiden University,https://www.timeshighereducation.com/world-university-rankings/leiden-university,"PO Box 9500, Leiden, 2300, Netherlands",52.15364,4.49381
9,NL,20,Erasmus University Rotterdam,https://www.timeshighereducation.com/world-university-rankings/erasmus-university-rotterdam,"Burgemeester Oudlaan 50, Rotterdam, 3062 PA, Netherlands",51.91906,4.52516
10,DE,22,Charité - Universitätsmedizin Berlin,https://www.timeshighereducation.com/world-university-rankings/charite-universitatsmedizin-berlin,"Charitéplatz 1, 10117 Berlin, Germany",52.52364,13.37821
11,NL,23,Utrecht University,https://www.timeshighereducation.com/world-university-rankings/utrecht-university,"P.O Box 80125, TC Utrecht, 3508, Netherlands",52.08979,5.11415
12,NL,25,Delft University of Technology,https://www.timeshighereducation.com/world-university-rankings/delft-university-technology,"Postbus 5, 2600 AA Delft, Netherlands",52.00878,4.36535
13,DE,25,University of Tübingen,https://www.timeshighereducation.com/world-university-rankings/university-tubingen,"Geschwister-Scholl-Platz, Tubingen, 72074, Germany",48.52435,9.05997
14,DE,27,Humboldt University of Berlin,https://www.timeshighereducation.com/world-university-rankings/humboldt-university-berlin,"Unter den Linden 6, D-10099 Berlin, Germany",52.51762,13.39376
15,NL,27,University of Groningen,https://www.timeshighereducation.com/world-university-rankings/university-groningen,"PO Box 72, 9700 AB Groningen, Netherlands",53.21687,6.57394
16,DE,29,University of Freiburg,https://www.timeshighereducation.com/world-university-rankings/university-freiburg,"Fahnenbergplatz, 79085 Freiburg, Germany",47.9986,7.84848
17,DK,30,University of Copenhagen,https://www.timeshighereducation.com/world-university-rankings/university-copenhagen,"Nørregade 10 Postboks 2177, 1017 København K, Denmark",55.68012,12.57151
18,FR,31,École Polytechnique,https://www.timeshighereducation.com/world-university-rankings/ecole-polytechnique,"Route de Saclay, Palaiseau, 91128, France",48.71895,2.21719
19,FR,31,Sorbonne University,https://www.timeshighereducation.com/world-university-rankings/sorbonne-university,"21 Rue de l'Ecole-de-Medecine, Paris, 75006, France",48.85123,2.34038
20,FI,36,University of Helsinki,https://www.timeshighereducation.com/world-university-rankings/university-helsinki,"P.O. Box 4, (Yliopistonkatu 3), 00014, Finland",60.30898,25.39256
21,BE,37,Ghent University,https://www.timeshighereducation.com/world-university-rankings/ghent-university,"Sint-Pietersnieuwstraat, B - 9000 Ghent, Belgium",51.04475,3.72653
22,SE,38,Lund University,https://www.timeshighereducation.com/world-university-rankings/lund-university,"Box 117, 221 00 Lund, Sweden",64.74951,20.89238
23,DK,39,Aarhus University,https://www.timeshighereducation.com/world-university-rankings/aarhus-university,"Nordre Ringgade 1 8000 Aarhus C, DK - Denmark, Denmark",56.17104,10.19937
24,DE,40,RWTH Aachen University,https://www.timeshighereducation.com/world-university-rankings/rwth-aachen-university,"Templergraben 55, 52056 Aachen, Germany",50.77764,6.07794
25,SE,44,Uppsala University,https://www.timeshighereducation.com/world-university-rankings/uppsala-university,"P.O. Box 256, SE-751 05, Uppsala, Sweden",59.65727,16.69322
26,DE,45,University of Bonn,https://www.timeshighereducation.com/world-university-rankings/university-bonn,"Regina Pacis Weg 3, D-53012 Bonn, Germany",50.73404,7.10384
27,NL,46,Vrije Universiteit Amsterdam,https://www.timeshighereducation.com/world-university-rankings/vrije-universiteit-amsterdam,"De Boelelaan 1105, Amsterdam, 1081 HV, Netherlands",52.33459,4.86648
28,DE,47,Free University of Berlin,https://www.timeshighereducation.com/world-university-rankings/free-university-berlin,"Kaiserswerther Str. 16-18, 14195 Berlin, Germany",52.44797,13.286
29,NL,48,Maastricht University,https://www.timeshighereducation.com/world-university-rankings/maastricht-university,"Postbus 616, Maastricht, 6200 MD, Netherlands",50.84982,5.68829
30,DE,52,University of Göttingen,https://www.timeshighereducation.com/world-university-rankings/university-gottingen,"Wilhelmsplatz, 37073 Göttingen, Germany",51.53381,9.93857
31,DE,54,University of Hamburg,https://www.timeshighereducation.com/world-university-rankings/university-hamburg,"Mittelweg 177, 20148 Hamburg, Germany",53.56399,9.99506
32,FR,55,University of Paris,https://www.timeshighereducation.com/world-university-rankings/university-paris,"85 boulevard Saint-Germain, cedex 06, Paris, Ile-de-France, 75006, France",48.85191,2.3401
33,NL,55,Radboud University Nijmegen,https://www.timeshighereducation.com/world-university-rankings/radboud-university-nijmegen,"Comeniuslaan 4, 6525 HP Nijmegen, Netherlands",51.81963,5.85692
34,DE,58,University of Würzburg,https://www.timeshighereducation.com/world-university-rankings/university-wurzburg,"Sanderring 2, Würzburg, 97070, Germany",49.78818,9.93524
35,DE,58,Technical University of Berlin,https://www.timeshighereducation.com/world-university-rankings/technical-university-berlin,"Straße des 17. Juni 135, D-10623 Berlin, Germany",52.51231,13.32698
36,DE,58,Ulm University,https://www.timeshighereducation.com/world-university-rankings/ulm-university,"Helmholtzstraße 16, Ulm, 89081, Germany",48.42521,9.96286
37,DE,58,University of Mannheim,https://www.timeshighereducation.com/world-university-rankings/university-mannheim,"Schloss, 68131 Mannheim, Germany",49.51322,8.48993
38,DE,62,University of Cologne,https://www.timeshighereducation.com/world-university-rankings/university-cologne,"Universitätsstraße 24, Cologne, 50931, Germany",50.93029,6.92742
39,DE,65,TU Dresden,https://www.timeshighereducation.com/world-university-rankings/tu-dresden,"D-01062 Dresden, Germany",51.05364,13.74082
40,ES,65,Pompeu Fabra University,https://www.timeshighereducation.com/world-university-rankings/pompeu-fabra-university,"Placa de la Merce 10-12, Barcelona, 08002, Spain",41.37898,2.17924
41,BE,73,Université Catholique de Louvain,https://www.timeshighereducation.com/world-university-rankings/universite-catholique-de-louvain,"1 Place de l'Université, Louvain-la-Neuve, B-1348, Belgium",50.6698128,4.6155308
42,AT,73,University of Vienna,https://www.timeshighereducation.com/world-university-rankings/university-vienna,"Universitätsring 1 1010, Vienna, Austria",48.21301,16.36086
43,IT,75,University of Bologna,https://www.timeshighereducation.com/world-university-rankings/university-bologna,"Via Zamboni 33, Bologna, 40126, Italy",44.49691,11.35241
44,BE,76,University of Antwerp,https://www.timeshighereducation.com/world-university-rankings/university-antwerp,"Prinsstraat 13, 2000 Antwerpen, Belgium",51.2221428,4.4097577
45,IT,76,Sant’Anna School of Advanced Studies – Pisa,https://www.timeshighereducation.com/world-university-rankings/santanna-school-advanced-studies-pisa,"Piazza Martiri della Libertà,, Pisa, 56127, Italy",43.7204,10.40404
46,FR,81,Paris-Saclay University,https://www.timeshighereducation.com/world-university-rankings/paris-saclay-university,"Espace Technologique, Bat. Discovery - RD 128 - 2e é, Saint-Aubin, 91190, France",48.71482,2.14084
47,IT,84,Scuola Normale Superiore di Pisa,https://www.timeshighereducation.com/world-university-rankings/scuola-normale-superiore-di-pisa,"Piazza dei Cavalieri, 7, Pisa, 56126, Italy",43.71964,10.40029
48,ES,85,Autonomous University of Barcelona,https://www.timeshighereducation.com/world-university-rankings/autonomous-university-barcelona,"Placa Civica, Campus de la UAB, Barcelona, 08193, Spain",41.50243,2.10474
49,SE,86,Stockholm University,https://www.timeshighereducation.com/world-university-rankings/stockholm-university,"SE-106 91, Stockholm, Sweden",59.47845,17.77873
50,NL,87,Eindhoven University of Technology,https://www.timeshighereducation.com/world-university-rankings/eindhoven-university-technology,"Postbus 513, Eindhoven, 5600, Netherlands",51.43598,5.48533
51,DK,87,Technical University of Denmark,https://www.timeshighereducation.com/world-university-rankings/technical-university-denmark,"Anker Engelunds Vej 1, 2800 Kgs. Lyngby, Denmark",55.7857163,12.5225252
52,SE,89,University of Gothenburg,https://www.timeshighereducation.com/world-university-rankings/university-gothenburg,"PO Box 100, SE-405 30, Gothenburg, Sweden",57.79101,11.99663
53,DE,92,University of Münster,https://www.timeshighereducation.com/world-university-rankings/university-munster,"Schlossplatz 2, 48149 Munster, Germany",51.96361,7.61314
54,DE,93,University of Erlangen-Nuremberg,https://www.timeshighereducation.com/world-university-rankings/university-erlangen-nuremberg,"Schlossplatz 4, Erlangen, 91054, Germany",49.59788,11.00453
55,ES,93,University of Barcelona,https://www.timeshighereducation.com/world-university-rankings/university-barcelona,"Gr. Via de les Corts Catalanes, 585, Barcelona, 08007, Spain",41.38654,2.16401
56,IT,97,Sapienza University of Rome,https://www.timeshighereducation.com/world-university-rankings/sapienza-university-rome,"Piazzale Aldo Moro 5, Rome, 00185, Italy",41.9015,12.51243
57,FR,97,Télécom Paris,https://www.timeshighereducation.com/world-university-rankings/telecom-paris,"46 rue Barrault F-75634 Paris, Cedex 13, France",48.82648,2.34649
58,DE,97,University of Duisburg-Essen,https://www.timeshighereducation.com/world-university-rankings/university-duisburg-essen,"Universitätsstraße 2, Essen, 45141, Germany",51.46313,7.00332
59,NL,97,Tilburg University,https://www.timeshighereducation.com/world-university-rankings/tilburg-university,"Warandelaan 2, AB Tilburg, 5037, Netherlands",51.56327,5.04171
60,NL,97,University of Twente,https://www.timeshighereducation.com/world-university-rankings/university-twente,"PO Box 217, 7500 AE Enschede, Netherlands",52.22361,6.89551
61,DE,97,University of Hohenheim,https://www.timeshighereducation.com/world-university-rankings/university-hohenheim,"Schloss Hohenheim 1, 70599 Stuttgart, Germany",48.71188,9.21407
62,DE,97,Karlsruhe Institute of Technology,https://www.timeshighereducation.com/world-university-rankings/karlsruhe-institute-technology,"Kaiserstraße 12, Karlsruhe, 76131, Germany",49.0095,8.4114
63,BE,97,Université libre de Bruxelles,https://www.timeshighereducation.com/world-university-rankings/universite-libre-de-bruxelles,"Avenue Franklin Roosevelt 50, 1050 Bruxelles, Belgium",50.81172,4.38108
64,LU,97,University of Luxembourg,https://www.timeshighereducation.com/world-university-rankings/university-luxembourg,"2, avenue de l'Université, L-4365 Esch-sur-Alzette, Luxembourg",49.50441,5.94886
65,AT,97,Medical University of Vienna,https://www.timeshighereducation.com/world-university-rankings/university-vienna,"Universitätsring 1 1010, Vienna, Austria",48.21301,16.36086
66,FI,97,Aalto University,https://www.timeshighereducation.com/world-university-rankings/aalto-university,"PO Box 18000, Aalto, 00076, Finland",60.30898,25.39256
67,SE,97,Chalmers University of Technology,https://www.timeshighereducation.com/world-university-rankings/chalmers-university-technology,"Maskingränd 2, Göteborg, 412 58, Sweden",57.6882,11.97859
68,AT,97,Medical University of Graz,https://www.timeshighereducation.com/world-university-rankings/university-graz,"Universitätsplatz 3, A - 8010 Graz, Austria",47.0776,15.44954
69,DK,97,Copenhagen Business School,https://www.timeshighereducation.com/world-university-rankings/copenhagen-business-school,"Solbjerg Plads 3, DK-2000 Frederiksberg, Denmark",55.68155,12.53045
70,DK,97,Aalborg University,https://www.timeshighereducation.com/world-university-rankings/aalborg-university,"Fredrik Bajers Vej 5 P.O. Box 159, DK - 9100 Aalborg, Denmark",57.01502,9.98686
71,SE,97,KTH Royal Institute of Technology,https://www.timeshighereducation.com/world-university-rankings/kth-royal-institute-technology,"SE-100 44, Stockholm, Sweden",59.29266,18.02925
72,AT,97,Medical University of Innsbruck,https://www.timeshighereducation.com/world-university-rankings/university-innsbruck,"Innrain 52, A-6020 Innsbruck, Austria",47.26292,11.38442
73,DK,122,University of Southern Denmark,https://www.timeshighereducation.com/world-university-rankings/university-southern-denmark,"Campusvej 55 DK-5230, Odense M, Denmark",55.36832,10.42772
74,DE,122,University of Konstanz,https://www.timeshighereducation.com/world-university-rankings/university-konstanz,"Universitätsstraße 10, Konstanz, 78464, Germany",47.68953,9.18823
75,DE,122,Friedrich Schiller University Jena,https://www.timeshighereducation.com/world-university-rankings/friedrich-schiller-university-jena,"Fürstengraben 1, Jena, 07743, Germany",50.92977,11.58959
76,DE,122,Goethe University Frankfurt,https://www.timeshighereducation.com/world-university-rankings/goethe-university-frankfurt,"Grueneburgplatz 1/2nd floor, 60323 Frankfurt, Germany",50.12073,8.67549
77,BE,122,Vrije Universiteit Brussel,https://www.timeshighereducation.com/world-university-rankings/vrije-universiteit-brussel,"Pleinlaan 2, 1050 Brussel, Belgium",50.82301,4.39262
78,IT,122,University of Padua,https://www.timeshighereducation.com/world-university-rankings/university-padua,"Via 8 Febbraio 2, Padova, 35122, Italy",45.40667,11.87691
79,IT,122,Vita-Salute San Raffaele University,https://www.timeshighereducation.com/world-university-rankings/vita-salute-san-raffaele-university,"Via Olgettina 58, Milano, 20123, Italy",45.5069,9.26745
80,DE,122,Jacobs University,https://www.timeshighereducation.com/world-university-rankings/jacobs-university,"Jacobs University Bremen Campus Ring 1, 28759 Bremen, Germany",53.16843,8.64876
81,EE,122,University of Tartu,https://www.timeshighereducation.com/world-university-rankings/university-tartu,"Ülikooli 18, Tartu, 50090, Estonia",58.38107,26.71993
82,DE,122,University of Potsdam,https://www.timeshighereducation.com/world-university-rankings/university-potsdam,"Am Neuen Palais 10, 14469 Potsdam, Germany",52.40064,13.01365
83,DE,122,University of Kiel,https://www.timeshighereducation.com/world-university-rankings/university-kiel,"Christian-Albrechts-Platz 4, 24118 Kiel, Germany",54.33881,10.12262
84,FR,122,École Normale Supérieure de Lyon,https://www.timeshighereducation.com/world-university-rankings/ecole-normale-superieure,"45 Rue d'Ulm, Cedex 05, Paris, 75230, France",48.84229,2.34429
85,FR,122,École des Ponts ParisTech,https://www.timeshighereducation.com/world-university-rankings/ecole-des-ponts-paristech,"6-8 avenue Blaise-Pascal Cité Descartes, 77455 Champs-sur-Marne, Marne-la-Vallée, France",48.84058,2.58697
86,DE,122,Ruhr University Bochum,https://www.timeshighereducation.com/world-university-rankings/ruhr-university-bochum,"Universitätsstraße 150, 44801 Bochum, Germany",51.44589,7.26046
87,ES,122,University of Navarra,https://www.timeshighereducation.com/world-university-rankings/university-navarra,"Pamplona, Navarra, 31009, Spain",42.7992,-1.64776
88,DE,143,University of Greifswald,https://www.timeshighereducation.com/world-university-rankings/university-greifswald,"Domstraße 11, Greifswald, 17489, Germany",54.09501,13.37469
89,FR,143,Montpellier University,https://www.timeshighereducation.com/world-university-rankings/montpellier-university,"163 rue Auguste Broussonnet, 34090 Montpellier, France",43.61584,3.87204
90,DE,143,Technical University of Darmstadt,https://www.timeshighereducation.com/world-university-rankings/technical-university-darmstadt,"Karolinenplatz 5, Darmstadt, 64289, Germany",49.8746998,8.6554584
91,DE,143,University of Passau,https://www.timeshighereducation.com/world-university-rankings/university-passau,"Innstraße 41, D-94032 Passau, Germany",48.56653,13.44961
92,DE,143,University of Marburg,https://www.timeshighereducation.com/world-university-rankings/university-marburg,"Biegenstraße 10, D-35032 Marburg, Germany",50.81023,8.77399
93,ES,143,Autonomous University of Madrid,https://www.timeshighereducation.com/world-university-rankings/autonomous-university-madrid,"Madrid, 28049, Spain",40.56456,-3.70194
94,AT,143,University of Klagenfurt,https://www.timeshighereducation.com/world-university-rankings/university-klagenfurt,"Universitätsstraße 65-67, 9020 Klagenfurt am Wörthersee, Austria",46.61671,14.26494
95,FI,143,University of Oulu,https://www.timeshighereducation.com/world-university-rankings/university-oulu,"Pentti Kaiteran katu 1, 90570 Oulu, Finland",65.05691,25.46811
96,DE,143,Johannes Gutenberg University of Mainz,https://www.timeshighereducation.com/world-university-rankings/johannes-gutenberg-university-mainz,"Saarstr. 21 D 55122, Mainz, Germany",49.99585,8.24637
97,IT,143,University of Trento,https://www.timeshighereducation.com/world-university-rankings/university-trento,"Via Calepina, 14, Trento, 38122, Italy",46.06685,11.12305
98,FI,143,Tampere University,https://www.timeshighereducation.com/world-university-rankings/tampere-university,"Kalevantie 4, Tampere, 33100, Finland",61.49432,23.78018
99,CY,143,Cyprus University of Technology,https://www.timeshighereducation.com/world-university-rankings/cyprus-university-technology,"30 Archbishop Kyprianos Str, 3036 Lemesos, Cyprus",34.67465,33.04547
100,SE,164,Örebro University,https://www.timeshighereducation.com/world-university-rankings/orebro-university,"Fakultetsgatan 1, Örebro SE 70182, Sweden",59.25471,15.24844
101,DE,164,University of Bayreuth,https://www.timeshighereducation.com/world-university-rankings/university-bayreuth,"Universitätsstraße 30, 95440 Bayreuth, Germany",49.92629,11.587
102,BE,164,University of Liège,https://www.timeshighereducation.com/world-university-rankings/university-liege,"Place du 20-Août 7, Liege, 4000, Belgium",50.64078,5.57634
103,DE,164,University of Stuttgart,https://www.timeshighereducation.com/world-university-rankings/university-stuttgart,"Keplerstraße 7, Stuttgart, 70174, Germany",48.78156,9.17473
104,IT,164,University of Milan,https://www.timeshighereducation.com/world-university-rankings/university-milan,"Via Festa del Perdono 7, Milano, 20122, Italy",45.46036,9.19399
105,IT,164,University of Milan-Bicocca,https://www.timeshighereducation.com/world-university-rankings/university-milan,"Via Festa del Perdono 7, Milano, 20122, Italy",45.46036,9.19399
106,EL,164,University of Crete,https://www.timeshighereducation.com/world-university-rankings/university-crete,"Rethymnon, Crete, 74100, Greece",35.31655,24.50966
107,FR,164,Aix-Marseille University,https://www.timeshighereducation.com/world-university-rankings/aix-marseille-university,"Jardin du Pharo, 58, bd Charles Livon, Marseille, 13284, France",43.29215,5.35912
108,FR,164,Grenoble Alpes University,https://www.timeshighereducation.com/world-university-rankings/grenoble-alpes-university,"621 Central Avenue, Saint Martin d'Heres, 38400, France",45.18366,5.75224
109,FR,164,IMT Atlantique,https://www.timeshighereducation.com/world-university-rankings/imt-atlantique,"4, rue Alfred Kastler, La Chantrerie, Nantes, Cedex 3, 20722, France",47.28195,-1.52002
110,FR,164,Université de Versailles Saint-Quentin-en-Yvelines,https://www.timeshighereducation.com/world-university-rankings/universite-de-versailles-saint-quentin-en-yvelines,"55 avenue de Paris, Versailles, 78035, France",48.79955,2.14153
111,PT,164,NOVA University of Lisbon,https://www.timeshighereducation.com/world-university-rankings/nova-university-lisbon,"Campus de Campolide, 1099-085 Lisboa, Portugal",38.7339,-9.15997
112,PT,164,Catholic University of Portugal,https://www.timeshighereducation.com/world-university-rankings/catholic-university-portugal,"Palma de Cima, 1649-023 Lisbon, Portugal",38.74784,-9.16717
113,FI,164,University of Turku,https://www.timeshighereducation.com/world-university-rankings/university-turku,"Turku, 20014, Finland",60.4528,22.25155
114,FI,164,Lappeenranta-Lahti University of Technology LUT,https://www.timeshighereducation.com/world-university-rankings/lappeenranta-lahti-university-technology-lut,"Yliopistonkatu 34, Lappeenranta, 53850, Finland",61.0137,28.15952
115,AT,164,University of Innsbruck,https://www.timeshighereducation.com/world-university-rankings/university-innsbruck,"Innrain 52, A-6020 Innsbruck, Austria",47.26292,11.38442
116,BE,164,Hasselt University,https://www.timeshighereducation.com/world-university-rankings/hasselt-university,"Martelarenlaan 42, 3500 Hasselt, Belgium",50.93364,5.34233
117,IT,164,Polytechnic University of Milan,https://www.timeshighereducation.com/world-university-rankings/university-milan,"Via Festa del Perdono 7, Milano, 20122, Italy",45.46036,9.19399
118,IT,192,University of Bari Aldo Moro,https://www.timeshighereducation.com/world-university-rankings/university-bari-aldo-moro,"Piazza Umberto I, Bari, 70121, Italy",41.12001,16.8708
119,ES,192,CEU Universities,https://www.timeshighereducation.com/world-university-rankings/ceu-universities,"C/ Isaac Peral, Madrid, 58 - 28040, Spain",40.44215,-3.71859
120,PT,192,University of Porto,https://www.timeshighereducation.com/world-university-rankings/university-porto,"Praça Gomes Teixeira, Porto, 4099-002, Portugal",41.1473723,-8.6151288
121,AT,192,TU Wien,https://www.timeshighereducation.com/world-university-rankings/tu-wien,"Karlsplatz 13, 1040 Vienna, Austria",48.19898,16.3699
122,EL,192,National and Kapodistrian University of Athens,https://www.timeshighereducation.com/world-university-rankings/national-and-kapodistrian-university-athens,"30 Panepistimiou Ave, 106 79 Athens, Greece",37.9805689,23.7329373
123,IT,192,Verona University,https://www.timeshighereducation.com/world-university-rankings/verona-university,"Via dell'Artigliere 8, Verona, 37129, Italy",45.43855,11.00403
124,IT,192,University of Sannio,https://www.timeshighereducation.com/world-university-rankings/university-sannio,"Piazza Guerrazzi, Benevento, 82100, Italy",41.12995,14.78553
125,IT,192,University of Salerno,https://www.timeshighereducation.com/world-university-rankings/university-salerno,"Via Giovanni Paolo II, 132, Fisciano Salerno, 84084, Italy",40.77727,14.78501
126,IT,192,University of Rome II – Tor Vergata,https://www.timeshighereducation.com/world-university-rankings/university-rome-ii-tor-vergata,"Via Cracovia snc, Rome, 00133, Italy",41.85156,12.62991
127,IT,192,Polytechnic University of Bari,https://www.timeshighereducation.com/world-university-rankings/polytechnic-university-bari,"Via Giovanni Amendola, 126/B, Bari, 70126, Italy",41.11163,16.88271
128,HU,192,Semmelweis University,https://www.timeshighereducation.com/world-university-rankings/semmelweis-university,"Ülloi út 26, H - 1085 Budapest, Hungary",47.48715,19.06738
129,SE,192,Linköping University,https://www.timeshighereducation.com/world-university-rankings/linkoping-university,"Linkoping, SE-581 83, Sweden",58.41109,15.62565
130,IT,192,University of Pisa,https://www.timeshighereducation.com/world-university-rankings/university-pisa,"Lungarno Pacinotti 43, Pisa, 56126, Italy",43.71665,10.39882
131,IT,192,University of Pavia,https://www.timeshighereducation.com/world-university-rankings/university-pavia,"Strada Nuova 65, Pavia, 27100, Italy",45.18675,9.15586
132,IT,192,University of Naples Federico II,https://www.timeshighereducation.com/world-university-rankings/university-naples-federico-ii,"Corso Umberto I 40, Napoli, 80138, Italy",40.84525,14.25771
133,IT,192,University of Modena and Reggio Emilia,https://www.timeshighereducation.com/world-university-rankings/university-modena-and-reggio-emilia,"Via Università 4, Modena, 41121, Italy",44.64435,10.92815
134,ES,192,University of Valencia,https://www.timeshighereducation.com/world-university-rankings/university-valencia,"Avda. Blasco Ibáñez 13, Valencia, 46010, Spain",39.4793,-0.36413
135,IT,192,Free University of Bozen-Bolzano,https://www.timeshighereducation.com/world-university-rankings/free-university-bozen-bolzano,"Piazza Universita, 1, Bozen-Bolzano, 39100, Italy",46.49849,11.35073
136,IT,192,University of Florence,https://www.timeshighereducation.com/world-university-rankings/university-florence,"P.zza S.Marco 4, Firenze, Florence, 50121, Italy",43.77782,11.25944
137,IT,192,University of Brescia,https://www.timeshighereducation.com/world-university-rankings/university-brescia,"Piazza del Mercato, 15, Brescia, 25121, Italy",45.53785,10.21769
138,IT,192,University of Turin,https://www.timeshighereducation.com/world-university-rankings/university-turin,"Via Giuseppe Verdi 8, Turin, 10124, Italy",45.0691567,7.6900353
139,IT,192,University of Genoa,https://www.timeshighereducation.com/world-university-rankings/university-genoa,"Via Balbi, 5, Genova, 16126, Italy",44.41485,8.92662
140,IT,192,University of Siena,https://www.timeshighereducation.com/world-university-rankings/university-siena,"via Banchi di Sotto 55, Siena, 53100, Italy",43.31914,11.33277
141,FR,192,University of Bordeaux,https://www.timeshighereducation.com/world-university-rankings/university-bordeaux,"146 rue Léo Saignat, S 61292, Bordeaux, 33 076, France",44.82704,-0.60078
142,FI,192,University of Jyväskylä,https://www.timeshighereducation.com/world-university-rankings/university-jyvaskyla,"PO Box 35, FI-40014, Finland",60.30898,25.39256
143,FI,192,University of Eastern Finland,https://www.timeshighereducation.com/world-university-rankings/university-eastern-finland,"Yliopistokatu 2 P.O. Box 111, FI-80101 Joensuu, Finland",62.60361,29.74763
144,FR,192,Centrale Nantes,https://www.timeshighereducation.com/world-university-rankings/centrale-nantes,"1 rue de la Noë, Nantes, Pays de la Loire, 44321, France",47.2482139,-1.5508602
145,FR,192,Federal University of Toulouse Midi-Pyrénées,https://www.timeshighereducation.com/world-university-rankings/federal-university-toulouse-midi-pyrenees,"41 Allées Jules Guesde, 31013 Toulouse, France",43.59501,1.45131
146,FR,192,L’institut Agro,https://www.timeshighereducation.com/world-university-rankings/linstitut-agro,"42 Rue Scheffer, Paris, 75116, France",48.8625,2.28159
147,DE,192,University of Bremen,https://www.timeshighereducation.com/world-university-rankings/university-bremen,"Bibliothekstraße 1, Bremen, 28359, Germany",53.10609,8.85241
148,CZ,192,Charles University in Prague,https://www.timeshighereducation.com/world-university-rankings/charles-university-prague,"Ovocný trh 3-5, Prague 1, 116 36, Czech Republic",50.08658,14.42478
149,DE,192,TU Dortmund University,https://www.timeshighereducation.com/world-university-rankings/tu-dortmund-university,"August-Schmidt-Straße 4, Dortmund, 44227, Germany",51.48443,7.41402
150,DE,192,Justus Liebig University Giessen,https://www.timeshighereducation.com/world-university-rankings/justus-liebig-university-giessen,"Ludwigstraße 23, 35390 Giessen, Germany",50.58053,8.67705
151,FR,245,Télécom SudParis,https://www.timeshighereducation.com/world-university-rankings/telecom-sudparis,"9 rue Charles Fourier, Evry, 91011, France",48.62424,2.44478
152,IT,245,University of Catania,https://www.timeshighereducation.com/world-university-rankings/university-catania,"Piazza Università, 2, Catania, 95131, Italy",37.5039,15.08735
153,IT,245,University of Ferrara,https://www.timeshighereducation.com/world-university-rankings/university-ferrara,"via Ludovico Ariosto, 35, Ferrara, 44121, Italy",44.8422,11.61619
154,FR,245,Sciences Po,https://www.timeshighereducation.com/world-university-rankings/sciences-po,"27 Rue Saint Guillaume, 75337 Paris, France",48.85413,2.3284
155,IT,245,University of Messina,https://www.timeshighereducation.com/world-university-rankings/university-messina,"Piazza Pugliatti, 1, Messina, 98122, Italy",38.18915,15.55237
156,IT,245,Polytechnic University of Turin,https://www.timeshighereducation.com/world-university-rankings/polytechnic-university-turin,"Corso Duca degli Abruzzi 24, Torino, 10129, Italy",45.06244,7.66234
157,IT,245,University of Sassari,https://www.timeshighereducation.com/world-university-rankings/university-sassari,"Piazza Università 21, Sassari, Italy",40.72499,8.55992
158,IT,245,University of Trieste,https://www.timeshighereducation.com/world-university-rankings/university-trieste,"Piazzale Europa 1, Trieste, 34127, Italy",45.65871,13.79335
159,IT,245,University of Tuscia,https://www.timeshighereducation.com/world-university-rankings/university-tuscia,"Via S.M. in Gradi n.4, Viterbo, 01100, Italy",42.41321,12.11185
160,IT,245,University of Urbino Carlo Bo,https://www.timeshighereducation.com/world-university-rankings/university-urbino-carlo-bo,"Via Aurelio Saffi 2, Urbino, 61029, Italy",43.72326,12.63685
161,PT,245,University of Lisbon,https://www.timeshighereducation.com/world-university-rankings/university-lisbon,"Alameda da Universidade Cidade Universitária, 1649 - 004 Lisboa, Portugal",38.75247,-9.15896
162,ES,245,Complutense University of Madrid,https://www.timeshighereducation.com/world-university-rankings/complutense-university-madrid,"Avda. de Séneca, 2, Ciudad Universitaria, Madrid, 28040, Spain",40.43694,-3.72474
163,IT,245,University of L’Aquila,https://www.timeshighereducation.com/world-university-rankings/university-laquila,"Palazzo Camponeschi, 2 Piazza Santa Margherita, L'Aquila, Abruzzo, 67100, Italy",42.35145,13.39772
164,FR,245,Claude Bernard University Lyon 1,https://www.timeshighereducation.com/world-university-rankings/claude-bernard-university-lyon-1,"43 Blvd du 11 Novembre 1918, 69622 Villeurbanne cedex, Lyon, France",45.7791,4.86573
165,PL,245,Jagiellonian University,https://www.timeshighereducation.com/world-university-rankings/jagiellonian-university,"ul. Golebia 24, Krakow, 31-007, Poland",50.0609578,19.9334482
166,FR,245,CentraleSupélec,https://www.timeshighereducation.com/world-university-rankings/centralesupelec,"Plateau de Moulon, 3 rue Joliot-Curie, F-91192 Gif-sur-Yvette, France",48.70961,2.16401
167,AT,245,Graz University of Technology,https://www.timeshighereducation.com/world-university-rankings/graz-university-technology,"Rechbauerstraße 12, 8010 Graz, Austria",47.06818,15.4494
168,FR,245,University of Côte d’Azur,https://www.timeshighereducation.com/world-university-rankings/university-cote-dazur,"Grand Château 28, avenue Valrose, BP 2135, Nice cedex 2, 06103, France",43.71824,7.26678
169,DE,245,Leibniz University Hannover,https://www.timeshighereducation.com/world-university-rankings/leibniz-university-hannover,"Welfengarten 1, Hannover, D-30167, Germany",52.38224,9.71776
170,IT,245,University of Insubria,https://www.timeshighereducation.com/world-university-rankings/university-insubria,"Via Ravasi, 2, Varese, Lombardia, 21100, Italy",45.81466,8.82792
171,CY,245,University of Cyprus,https://www.timeshighereducation.com/world-university-rankings/university-cyprus,"1 Panepistimiou Avenue, Aglantzia, Nicosia, Cyprus",35.14285,33.40549
172,FR,245,University of Strasbourg,https://www.timeshighereducation.com/world-university-rankings/university-strasbourg,"4 rue Blaise Pascal CS 90032, F-67081 Strasbourg cedex, France",48.58071,7.76657
173,CZ,279,Palacký University Olomouc,https://www.timeshighereducation.com/world-university-rankings/palacky-university-olomouc,"8 Krízkovskeho, Olomouc, 771 47, Czech Republic",49.59513,17.25922
174,FR,279,University of Lorraine,https://www.timeshighereducation.com/world-university-rankings/university-lorraine,"34 cours Léopold, CS 25233, Nancy, 54052, France",48.69615,6.1766
175,FR,279,University of Nantes,https://www.timeshighereducation.com/world-university-rankings/university-nantes,"1, quai de Tourville, BP 13522, Nantes, 44035, France",47.2094,-1.55589
176,FR,279,National Institute of Applied Sciences of Lyon (INSA Lyon),https://www.timeshighereducation.com/world-university-rankings/national-institute-applied-sciences-lyon-insa-lyon,"20 avenue Albert Einstein, 69621 Villeurbanne, France",45.7834949,4.8786717
177,MT,279,University of Malta,https://www.timeshighereducation.com/world-university-rankings/university-malta,"Msida MSD 2080, Malta",35.89919,14.48813
178,FR,279,Panthéon-Sorbonne University – Paris 1,https://www.timeshighereducation.com/world-university-rankings/pantheon-sorbonne-university-paris-1,"12 place du Panthéon, 75231 Paris, France",48.8468,2.34488
179,EL,279,University of Ioannina,https://www.timeshighereducation.com/world-university-rankings/university-ioannina,"P.O. Box 1186, 45110 Ioannina, Greece",39.66858,20.85638
180,FR,279,University of Lille,https://www.timeshighereducation.com/world-university-rankings/university-lille,"42, rue Paul Duez, Lille, 59000, France",50.63179,3.07526
181,EL,279,National Technical University of Athens,https://www.timeshighereducation.com/world-university-rankings/national-technical-university-athens,"Heroon Polytechniou 9, 15780 Zografou, Greece",37.9785993,23.7734851
182,ES,279,University of the Balearic Islands,https://www.timeshighereducation.com/world-university-rankings/university-balearic-islands,"Cra. de Valldemossa, Palma, Baleares, 07122, Spain",39.64081,2.64879
183,LV,279,University of Latvia,https://www.timeshighereducation.com/world-university-rankings/university-latvia,"Raina bulvaris 19, Riga, LV 1586, Latvia",56.95063,24.11578
184,ES,279,University of Deusto,https://www.timeshighereducation.com/world-university-rankings/university-deusto,"Avenida de las Universidades,, 24, Bizkaia, 48007, Spain",43.2703,-2.93716
185,IT,279,University of Udine,https://www.timeshighereducation.com/world-university-rankings/university-udine,"Via Palladio 8, Udine, 33100, Italy",46.06629,13.23273
186,IT,279,University of Salento,https://www.timeshighereducation.com/world-university-rankings/university-salento,"Piazza Tancredi, Lecce (LE), 73100, Italy",40.34969,18.16735
187,CZ,279,Masaryk University,https://www.timeshighereducation.com/world-university-rankings/masaryk-university,"Žerotínovo námestí 9 Rektorát, Brno-mesto, Brno, Czech Republic",49.19883,16.60523
188,EL,279,University of Thessaly,https://www.timeshighereducation.com/world-university-rankings/university-thessaly,"Argonafton & Filellinon, 38221 Volos, Greece",39.35707,22.9509
189,EL,279,Athens University of Economics and Business,https://www.timeshighereducation.com/world-university-rankings/athens-university-economics-and-business,"76, Patission Str., GR10434 Athens, Greece",37.97614,23.7364
190,AT,279,Johannes Kepler University of Linz,https://www.timeshighereducation.com/world-university-rankings/johannes-kepler-university-linz,"Altenberger Straße 69, A-4040 Linz, Austria",48.33733,14.32256
191,AT,279,University of Graz,https://www.timeshighereducation.com/world-university-rankings/university-graz,"Universitätsplatz 3, A - 8010 Graz, Austria",47.0776,15.44954
192,DE,279,Hamburg University of Technology,https://www.timeshighereducation.com/world-university-rankings/hamburg-university-technology,"Am Schwarzenberg, Hamburg, 21073, Germany",53.46383,9.96976
193,DE,279,University of Kaiserslautern,https://www.timeshighereducation.com/world-university-rankings/university-kaiserslautern,"Gottlieb-Daimler-Strasse, Kaiserslautern, 67663, Germany",49.42259,7.75349
194,PT,279,University of Aveiro,https://www.timeshighereducation.com/world-university-rankings/university-aveiro,"3810-193 Aveiro, Portugal",40.63413,-8.65799
195,PT,279,University of Beira Interior,https://www.timeshighereducation.com/world-university-rankings/university-beira-interior,"Convento de Sto. Antonio, 6201-001 Covilha, Portugal",40.19977,-7.54486
196,PT,279,University of Coimbra,https://www.timeshighereducation.com/world-university-rankings/university-coimbra,"Paço das Escolas, Coimbra, 3004-531, Portugal",40.31425,-8.75085
